name,lat ,lon,銘柄
（株）兼中　田中商店,43.0909579,141.3425112,"['男山']"
クワハラ食糧（株）,43.1150863,141.3401039,"['男山']"
酒のいろは - （有）鈴木商店,43.1096344,141.3432736,"['男山']"
（有）石黒商店,43.0419761,141.414893,"['男山']"
セラーズ大谷地店,43.0211144,141.4470901,"['男山']"
（有）根本商店,43.0058261,141.3493239,"['男山']"
生活協同組合コープさっぽろ　ソシア店,42.9913498,141.3335263,"['男山']"
（株）マルミ　北栄商店,43.1049105,141.3777932,"['男山', '仙禽']"
地酒・ワイン屋　みのや,41.7999172,140.7345388,"['男山']"
（株）イチマス,41.7798136,140.7850594,"['男山']"
Ｍポケット - （株）石本商店,42.901292,140.807762,"['男山']"
（株）丸コ小林商店,43.1794875,141.004099,"['男山']"
ワインハウス　グリーン - （株）きたがわ,42.3517999,141.0102209,"['男山']"
リカーマックス - （株）寿浅,42.4725921,140.8688815,"['男山']"
（株）サンユー食材,42.6411863,141.6089124,"['男山']"
リカーショップＮＩＫＫＥＩ - 日軽北海道（株）,42.6298539,141.5423445,"['男山']"
アルス美原店 - （有）エー・ビーショップ,42.614874,141.505173,"['男山']"
蔵太郎（株）,43.0660933,141.361465,"['男山']"
ワタショウ（株）,43.0577223,141.3632152,"['男山']"
（株）わしづ,43.0553274,141.3622376,"['男山']"
グランヴァンセラーさっぽろ東急店 - （株）いまい　札幌東急店,43.0664861,141.3526596,"['男山']"
リカーショップ　ＡＲＡＤＥ - （有）新出,43.0469551,141.374216,"['男山']"
リカーショップ　いまい - （株）いまい,43.0415172,141.3617498,"['男山']"
（有）山谷商店,43.0808307,141.2800203,"['男山']"
グランヴァンセラーすすきの店 - （株）いまい　すすきの店,43.0545329,141.3530488,"['男山']"
クワハラ食糧（株）ささや店,43.0537669,141.3453866,"['男山']"
（株）ムラオカ食品,43.0494529,141.3433262,"['男山']"
（有）カネダイ早坂,43.0959257,141.3781474,"['男山']"
（株）山三ふじや　渡部商店イオン千歳店,42.8288531,141.648617,"['男山']"
山田商店,43.0926847,141.5254412,"['男山']"
（株）吉竹商店,43.7605792,142.353412,"['男山']"
大垣商事（株）,43.7646629,142.3650249,"['男山']"
（株）河井商店,43.7665297,142.3575627,"['男山']"
西村商店,43.7676757,142.3701283,"['男山']"
（有）六車商店,43.7881209,142.3524061,"['男山']"
（有）リカーショップ　かまだ,43.4573458,142.4702813,"['男山']"
（有）リカーショップ　カクイ,44.3608225,141.6973092,"['男山']"
（株）リカーショップとらすと,43.7708833,142.3650083,"['男山']"
（有）久楽屋,42.9092251,143.2038712,"['男山']"
（株）イノウエ,42.9104538,143.2020279,"['男山']"
（株）榮屋酒店,42.9836833,144.3869933,"['男山']"
（有）梶川商店,44.0195498,144.2652288,"['男山']"
山崎商店,44.1734982,142.3927369,"['男山']"
スコール本店 - （株）フクハラ,40.8200339,140.7541631,"['如空']"
紅屋商事（株）　メガ観光通店,40.8033829,140.7553726,"['如空', '一ノ蔵', '天寿', '大山']"
紅屋商事（株）　メガ大野店,40.8006329,140.7393163,"['如空', '一ノ蔵', '天寿', '大山']"
青森県民生活協同組合　八重田店,40.8317476,140.7897765,"['如空']"
（株）さくら野百貨店　青森本店,40.8262168,140.7390748,"['如空']"
（株）さくら野百貨店　八戸店,40.5103305,141.4909909,"['如空']"
紅屋商事（株）　メガ江陽店,40.5219511,141.5052414,"['如空', '一ノ蔵', '天寿', '大山']"
（有）中居酒店,40.6846467,141.3651993,"['如空', '天寿']"
紅屋商事（株）　メガベニマート黒石店,40.6372973,140.5983659,"['如空', '一ノ蔵', '天寿', '大山']"
紅屋商事（株）　メガ神田店,40.6241961,140.4863999,"['如空', '一ノ蔵', '天寿', '大山']"
紅屋商事（株）　メガ城東店,40.5984835,140.5091487,"['如空', '一ノ蔵', '天寿', '大山']"
紅屋商事（株）　メガ五所川原店,40.8005409,140.464808,"['如空', '一ノ蔵', '天寿', '大山']"
（株）丸三毛内商店,40.8082962,140.4455749,"['如空']"
紅屋商事（株）　メガ西青森店,40.8307574,140.7021316,"['如空', '一ノ蔵', '天寿', '大山']"
紅屋商事（株）　メガ柏店,40.8005874,140.4144929,"['如空', '一ノ蔵', '天寿', '大山']"
木津商店,40.5085132,141.4334314,"['如空']"
紅屋商事（株）　メガ長苗代店,40.5131482,141.4516503,"['如空', '一ノ蔵', '天寿', '大山']"
かわさく酒店 - 川村荘二酒店,40.6963743,141.1537442,"['如空']"
なるみ酒店 - （有）成美商事,39.7279165,140.107148,"['天寿']"
紅屋商事（株）　メガ新国道店,39.7329183,140.099548,"['天寿', '大山']"
紅屋商事（株）　メガ仁井田店,39.6730612,140.125093,"['天寿', '大山']"
酒のライズ - （有）ライジング,39.6693289,140.0927538,"['天寿']"
紅屋商事（株）　メガ土崎店,39.768219,140.0672182,"['天寿', '大山']"
（有）中野酒店,39.3119285,140.56895,"['天寿', '旭日']"
（株）斉藤酒米店,39.4670977,140.4702973,"['天寿']"
木島酒店,39.359118,140.0771778,"['天寿']"
紅屋商事（株）　メガ能代中央店,40.1913985,140.0232605,"['天寿', '大山']"
酒のツツイ - （株）筒井商店　大館支店,40.2722852,140.5793428,"['天寿']"
トム太商店 - （株）須藤商店,39.214969,139.9008039,"['天寿']"
酒のマルジュウ - （名）佐藤商店,40.2248588,140.3654065,"['天寿']"
（株）関小市商店,40.1900659,140.79039,"['天寿']"
（有）名郷根商店,39.7092847,141.1330088,"['天寿']"
（有）小林商店,39.1345477,141.1511278,"['一ノ蔵']"
（有）タカトメ,39.2347033,141.1227436,"['一ノ蔵', '天寿', '大山']"
酒ノ蔵　わたなべ - （有）渡辺酒店,39.293248,141.0944466,"['天寿']"
タムラ酒店,40.1914798,141.7625374,"['天寿']"
さけ家こんこん,38.2495621,140.3305632,"['大山']"
（有）北庄　武田酒店,38.2668971,140.3362682,"['千代寿']"
（株）丸俊,38.2909657,140.3548331,"['一ノ蔵', '天寿', '大山', '千代寿']"
（有）金森酒店,38.251369,140.3262053,"['千代寿']"
（有）川田酒店,38.2323173,140.3114782,"['千代寿']"
酒専門店たかしま屋 - （有）高島屋本店,38.3684922,140.2832235,"['千代寿']"
グッディショップ　カネコ - 金子酒店,37.9157699,140.096964,"['千代寿']"
まるはち酒店,38.1146413,140.0339928,"['千代寿']"
川原子酒店,38.364771,140.3719206,"['千代寿']"
（株）大黒屋,38.3528622,140.3638515,"['一ノ蔵', '大山', '千代寿']"
（株）井上商店,38.7572493,140.3087381,"['天寿', '千代寿']"
小池商店,38.7249488,139.8393304,"['大山']"
（株）主婦の店　イーネ駅前店,38.7371775,139.834056,"['大山']"
（株）主婦の店　ＩＺＭＯ新斎店,38.7356403,139.8186638,"['大山']"
（株）主婦の店　ｍｉｎａ店,38.7174281,139.8306447,"['大山']"
（株）主婦の店　鶴岡パル店,38.7338054,139.7999609,"['大山']"
信屋酒店,38.7479724,139.7593682,"['大山']"
（有）羽藤酒店,38.9219575,139.8281644,"['大山']"
（株）ト一屋　みずほ通り店,38.9023526,139.8514006,"['大山']"
（有）木川屋商店,38.9150655,139.8525042,"['大山']"
地酒蔵　ゆうき - （株）結城酒店,38.04289,140.1612367,"['千代寿']"
後藤初太郎商店 - 後藤酒販店,38.8429918,139.9025063,"['大山']"
（有）阿部八酒店,38.2746141,140.8842188,"['一ノ蔵']"
錦本店（株）円達トレーディング,38.2675191,140.876609,"['一ノ蔵']"
（株）ヨークベニマル矢本店,38.4232333,141.2150865,"['一ノ蔵']"
河村酒店,37.9759348,140.7782534,"['一ノ蔵']"
グリーンマート　桂店 - カメイ（株）,38.3373692,140.8635389,"['一ノ蔵']"
（有）中勇分店,38.5609282,140.8638362,"['一ノ蔵']"
酒の九洲　黒松店　丸宮酒店 - （有）ハルコーポレーション,38.3035887,140.8822646,"['一ノ蔵']"
（株）吉田酒店,38.2151565,140.8780968,"['一ノ蔵']"
さいち - （株）佐市,38.2274397,140.7217814,"['一ノ蔵', '天寿']"
（有）酒仙堂かとう,38.2723063,140.979941,"['一ノ蔵']"
小畑酒店,38.2832255,140.9286192,"['一ノ蔵']"
（株）カネサ藤原屋,38.2667352,140.9265086,"['一ノ蔵']"
（有）櫻井商店,38.2594955,140.8848624,"['一ノ蔵']"
（有）佐精,38.3149642,141.0255,"['一ノ蔵']"
（有）四釜商店,38.4332611,141.3026759,"['一ノ蔵']"
すがわら商店,38.5603537,141.0236388,"['一ノ蔵']"
（株）北田商店,38.5490845,141.1119891,"['一ノ蔵']"
酒のビッグボックス　（有）田口酒店,38.7006727,141.2104597,"['一ノ蔵']"
地酒のリエゾン - （株）一ノ蔵,38.5014342,141.0486816,"['一ノ蔵']"
すがとよ酒店,38.9134642,141.580899,"['一ノ蔵']"
丸秀酒店,38.0068404,140.6202851,"['一ノ蔵']"
酒のだんざき - （有）檀崎,38.1135303,140.8719425,"['一ノ蔵']"
（株）吉岡屋,38.26535,140.7878143,"['一ノ蔵']"
（株）一桝,38.8319012,140.9990737,"['']"
（有）佐々木屋物産,38.574164,140.9617975,"['一ノ蔵']"
八幡屋,37.3705997,138.5696597,"['越の誉']"
田辺屋,37.9212352,139.0887041,"['越の誉']"
（株）佐藤酒店,37.6323641,138.962328,"['越の誉']"
リカーズファクトリーＫＡＤＯＹＡ - （株）かどや　ＫＡＤＯＹＡタウン４０３店,37.7844591,139.1141743,"['越の誉']"
（株）関根酒店,37.6006799,138.9208104,"['越の誉']"
（有）藤次郎商店,37.6974137,139.0636762,"['越の誉']"
リカーズファクトリーＫＡＤＯＹＡ - （株）かどや　ＫＡＤＯＹＡ五泉店,37.7447057,139.1889819,"['越の誉']"
（株）追分　クオーレ酒エクスプレス保原店,37.8211668,140.5487615,"['榮川']"
ワインブティック　ミディ - （株）追分,37.7516303,140.4571395,"['大山', '榮川']"
リカーズ酒蔵 - （株）いちい,37.750226,140.4452354,"['天寿', '榮川']"
（有）有賀酒店,37.1273463,140.2138709,"['榮川']"
まつみや酒店,37.2831469,140.3705739,"['榮川']"
（有）斎藤酒店,37.1468878,140.4549446,"['榮川']"
（株）うすい百貨店,37.3965857,140.384288,"['榮川']"
（有）陰山商店,37.3854427,140.389409,"['榮川']"
（有）鎌田屋,37.4257834,140.4044529,"['榮川']"
（資）遠藤商店,37.5913262,140.4353005,"['榮川']"
三代目　酒や　しもだいら - （株）しもだいら,37.5023661,139.9162622,"['榮川']"
（有）勢州屋本宮店,37.4895316,140.3972331,"['榮川']"
（有）あわのや酒店,37.0576654,140.8962062,"['榮川']"
（有）さぎ酒店,36.9492769,140.9005517,"['榮川']"
酒のいしかわ - （株）リンクジャパン,36.9734886,140.8707376,"['榮川']"
（株）松本米店,37.6372999,140.9482788,"['榮川']"
津久井酒店　ハタヤ,36.317142,139.3230382,"['開華']"
（有）ｇｒｅｅｎ（グリーン）,36.346687,138.9928737,"['開華']"
（有）十一屋酒店,36.2520076,138.9867165,"['開華']"
金子酒店,36.2114284,138.7863595,"['開華']"
（名）佐藤静治商店,36.409189,139.0256074,"['開華']"
（有）岩永屋酒店,36.2482481,139.0770488,"['開華']"
ワインフード　ハセガワ,36.4162121,139.3405261,"['開華']"
（有）堀井酒店,36.645298,139.0449865,"['越の誉']"
（有）吉川屋,36.3126325,138.8533695,"['開華']"
淀川酒店 - （株）淀川,36.5629263,139.8622385,"['開華', '仙禽']"
（株）人見酒店,36.5571803,139.9325208,"['仙禽']"
（有）登屋本店,36.8276285,139.7180233,"['仙禽']"
（有）高岡酒店,36.4323776,139.9974743,"['開華']"
（株）嶋田屋本店,36.5466328,139.7713977,"['開華', '仙禽']"
酒蔵　中野屋 - （株）中野屋酒店,36.316084,139.804196,"['開華']"
さいとう酒店 - （有）斉藤酒店,36.8610335,140.0155625,"['仙禽']"
（有）升忠酒店,36.9686705,140.0603833,"['開華', '仙禽']"
大黒屋酒店,36.3344844,139.4462504,"['開華']"
吉川屋酒店,36.3028684,139.5711087,"['開華']"
（株）野代酒店,36.3192835,139.5833491,"['開華']"
福田蔵 - （有）福田商店,36.3964594,139.7564995,"['開華']"
（有）竹中酒店,36.4353983,139.8631359,"['開華', '仙禽']"
菊水商店,36.0355962,140.2181636,"['月の井']"
みのや酒店 - （株）みのや,35.9186047,140.4880155,"['月の井']"
（有）アメヤ吉田酒店,36.0947603,140.1589254,"['月の井']"
タマノ酒店,35.9708112,140.137975,"['月の井']"
佐藤酒店本店,36.147948,140.1590413,"['月の井', '仙禽']"
（有）バッカス　サイトウ,36.2770803,140.0904801,"['月の井', '仙禽']"
酒のナカジマ - （株）ナカジマ,36.191153,139.963419,"['月の井', '仙禽', '多満自慢']"
鈴木酒店 - （株）すずき,36.1566791,139.967644,"['']"
たがみ酒店,36.0782804,140.1195952,"['']"
須藤酒店 - （有）リカーショップ　スドウ,36.0322085,140.0748325,"['月の井', '仙禽']"
（株）アライ,36.1290257,139.811629,"['月の井', '開華', '仙禽']"
（株）池田酒店,36.3085044,139.8763018,"['仙禽']"
大福屋 - ワインショップ　すずき,36.3762475,140.2477158,"['月の井']"
（株）金澤留造酒店,36.3991578,140.4418426,"['月の井', '仙禽']"
（有）酒バッカス,36.321688,140.4391228,"['月の井']"
（株）和飲風土,36.3895533,140.4933417,"['月の井']"
世界のお酒とワイン　サカモト,35.9598927,140.6439669,"['月の井']"
リカーハウス　アジマ　日立店 - （株）安島商事,36.5400958,140.6224482,"['月の井', '仙禽']"
小薗江商事,36.5985837,140.6579764,"['月の井']"
（有）井原商事,35.8789653,139.6651083,"['開華']"
（有）横内酒店,35.8716161,139.6425663,"['甲子']"
（有）和泉屋酒店,35.8607586,139.6533233,"['開華']"
加藤　清本店 - （有）加藤　清,35.8511574,139.6553754,"['天覧山']"
（有）並木酒店,35.887345,139.6486569,"['開華']"
（株）柴田酒店　花蔵楽,35.9039338,139.6259129,"['天覧山']"
まつばら,35.9398948,139.6121888,"['開華']"
白鳥屋酒店,35.8009121,139.7215367,"['天覧山']"
（有）かづさや酒店,35.8139038,139.6994507,"['開華']"
（株）朝日山千葉悦三商店,35.8151383,139.7090069,"['司牡丹']"
（株）十一屋北西商店,35.8328853,139.7398655,"['開華']"
高沢屋酒店,35.8243825,139.6793928,"['開華']"
（株）森田商店,35.831463,139.6412639,"['天覧山']"
（株）なかむら屋,35.8159124,139.7801816,"['天覧山']"
かしや - （株）ノモト,35.815229,139.8739267,"['開華']"
（株）おはこ屋,35.870759,139.8454822,"['天覧山']"
酒のかしわや - （株）柏屋,35.8897941,139.810509,"['開華']"
谷塚屋 - （有）谷塚屋,35.8647489,139.7913004,"['開華']"
山田酒店,36.1277215,139.5944489,"['開華']"
カドヤ酒店,35.9071909,139.4865714,"['天覧山']"
ほりこし酒店 - （有）堀越商店,35.9469043,139.4343449,"['仙禽', '司牡丹']"
（有）田口酒店,35.8751155,139.4319233,"['天覧山']"
（有）キングショップ誠屋,35.9505721,139.4137682,"['天覧山', '甲子']"
エスポア　まるげん - （有）丸源,35.787007,139.6071024,"['開華']"
（有）丸屋酒店,35.8541595,139.3163921,"['天覧山', '若竹', '開運']"
畑の蔵 - （有）コミュニティーストア　マスオカ,35.8379778,139.2826159,"['天覧山']"
（株）増田屋分店,35.8374188,139.3920128,"['天覧山']"
（有）やないや,35.8439999,139.35399,"['天覧山']"
（有）北田屋本店,35.8119879,139.4288046,"['天覧山']"
日野屋酒店,35.7897726,139.4660795,"['天覧山']"
（有）三好屋酒店,36.1567095,139.3264746,"['天覧山']"
（有）澤屋酒店,36.0055389,139.5610951,"['仙禽']"
くわなや酒店,36.0350913,139.5359484,"['開華']"
かのや　新井商店 - （有）新井商店,36.0597748,139.5109773,"['開華']"
こめ吉商店,36.2414615,139.1797776,"['天覧山']"
（株）中桝,36.1653286,139.1373096,"['開華']"
（有）磯部酒店,35.646698,138.5633133,"['春鶯囀']"
三枝酒店,35.6870673,138.5462993,"['春鶯囀']"
（株）松葉屋　バッカス甲府バイパス店,35.6577447,138.5273395,"['春鶯囀']"
（株）松葉屋　バッカス竜王店,35.6466897,138.5230725,"['春鶯囀']"
（株）松葉屋　バッカス敷島店,35.6760166,138.5257127,"['春鶯囀']"
和泉文　矢崎酒店,35.5500864,138.4606496,"['春鶯囀']"
（株）松葉屋　バッカス甲府東店,35.6533547,138.6102276,"['春鶯囀']"
（株）マツムラ酒販,35.6230792,138.5916865,"['春鶯囀']"
（株）岡酒類店,35.6612882,138.5793903,"['春鶯囀']"
山一支店,35.486628,138.8202316,"['春鶯囀']"
（有）塩山酒販,35.7036351,138.7367117,"['春鶯囀']"
酒の大布屋,35.6136281,138.9770566,"['春鶯囀']"
（有）山田屋,33.1125481,139.7942143,"['大雪渓']"
成田酒店,35.7506661,139.7968957,"['開華']"
（有）竹の塚　森田屋酒店,35.7949553,139.7937791,"['開華']"
（株）山桝酒店,35.7376473,139.7742397,"['開華']"
（有）モリタヤ酒店,35.737812,139.7901661,"['開華']"
（株）たなかや,35.7481669,139.7179354,"['天覧山']"
もとはし酒店 - （有）西村屋本橋商店,35.7460297,139.6988444,"['多満自慢']"
（有）志がらき商店,35.775581,139.6952007,"['多満自慢']"
（有）鈴光酒店,35.708305,139.8775701,"['開華']"
白鶴屋　田下酒店,35.7370038,139.886983,"['開華']"
（株）糀屋,35.7099719,139.8979205,"['開華']"
三國商店,35.5735151,139.7296378,"['多満自慢']"
（株）旭屋,35.5623793,139.7125047,"['甲子']"
橋和屋,35.5903663,139.6814265,"['仙禽']"
エスポア　いせい - （株）伊勢伊酒店,35.737024,139.8479343,"['開華']"
葛飾　酒ヤマニ - （株）山二,35.7699961,139.8694913,"['天覧山', '甲子', '大雪渓']"
（株）大林,35.7613632,139.7215114,"['多満自慢']"
三益酒店 - （株）三益,35.7761914,139.7081353,"['天覧山']"
（有）銀屋,35.6798962,139.802268,"['開華']"
折原商店,35.6719079,139.797608,"['甲子', '大雪渓']"
（株）はせがわ酒店 亀戸店,35.694488,139.8235081,"['仙禽']"
（株）五分利屋 五分利屋本店,35.6904713,139.8404565,"['大雪渓']"
（有）わくわく　リカーショップすぎうら,35.681947,139.8442892,"['開華']"
（株）伊豆屋商店,35.6034598,139.7085891,"['月の井']"
（株）京王百貨店　新宿店,35.6900548,139.6991541,"['仙禽']"
（株）キムラヤ　橋爪商店,35.7032249,139.7362754,"['信濃錦']"
（株）柳瀬屋,35.7077756,139.6349574,"['多満自慢']"
（有）高原商店,35.7002534,139.6457572,"['開華']"
（名）三矢商店,35.7001633,139.6375281,"['多満自慢']"
ヤナギヤ,35.6946321,139.6464475,"['多満自慢']"
（有）小松屋食料品店,35.7236166,139.6240313,"['多満自慢']"
（有）武蔵屋,35.7071261,139.6232101,"['多満自慢']"
（株）三ツ矢酒店,35.7017051,139.601111,"['多満自慢']"
（株）三浦屋 松庵店,35.6979297,139.5917362,"['多満自慢']"
岩田屋商店,35.7270305,139.8190636,"['甲子']"
（株）はせがわ酒店 スカイツリータウン店,35.7103611,139.8124283,"['仙禽']"
（株）オオゼキ 下北沢店,35.6620767,139.6685224,"['多満自慢']"
（株）オオゼキ 松原店,35.6599648,139.6427487,"['多満自慢']"
（有）遠州屋,35.6509903,139.6377269,"['開華', '多満自慢']"
シミズヤ烏山店 - （株）アドバンスクリヤマ,35.6680297,139.601848,"['多満自慢']"
（有）油屋佐藤酒店,35.6293129,139.6388046,"['信濃錦']"
半田酒店,35.722276,139.7830111,"['多満自慢']"
（有）ふくはら酒店,35.7044873,139.7789368,"['仙禽']"
スーパーシマダヤ日本堤店 - （株）島田屋　日本堤店,35.7278496,139.7994709,"['開華', '甲子']"
豊洲社中（株）WASAKE Sake Experience,35.712098,139.7923132,"['多満自慢']"
岡本屋永吉商店,35.6933857,139.7816429,"['開華', '甲子', '多満自慢']"
大黒屋深沢ｓａｋｅてらす - （有）大黒屋深沢,35.6904763,139.7843193,"['越の誉']"
（株）野澤酒店,35.6845869,139.7855577,"['月の井', '開華']"
（株）はせがわ酒店 日本橋店,35.6876497,139.7746064,"['仙禽']"
酒の勝鬨 - 勝鬨酒販（株）,35.6660074,139.7750924,"['大山', '甲子']"
（株）はせがわ酒店 パレスホテル東京店,35.6845001,139.7612211,"['仙禽']"
（株）福島屋　秋葉原店,35.7005495,139.7726153,"['多満自慢']"
（株）甲子屋酒店,35.6953332,139.7560144,"['開華']"
小西（株）,35.6952112,139.7662862,"['開華', '甲子', '多満自慢']"
（有）三木酒店,35.7405868,139.7440055,"['多満自慢']"
スーパーシマダヤ大塚店 - （株）島田屋　大塚店,35.7299438,139.728062,"['開華', '甲子']"
（有）升新商店,35.7328072,139.7045898,"['開華']"
（株）泉屋　ノザキ,35.7226133,139.6946205,"['大雪渓']"
永世屋,35.7056524,139.6584119,"['多満自慢']"
（株）広島屋,35.700342,139.6714581,"['多満自慢']"
（有）丸西三河屋酒店,35.7268567,139.6704735,"['多満自慢']"
上原酒店,35.7292551,139.5946279,"['多満自慢']"
（株）柴山大晴商店,35.7372902,139.628842,"['多満自慢']"
（有）伊勢屋鈴木酒店,35.7423843,139.6039263,"['天覧山']"
（資）本多酒店,35.7278292,139.7412626,"['開華']"
（有）サワノ本店,35.7202017,139.7626123,"['多満自慢']"
（有）河内屋,35.7111901,139.7541574,"['開華', '甲子']"
（株）マスモト,35.6694968,139.7498522,"['仙禽', '甲子']"
（株）浅野日本酒店　ＨＡＭＡＭＡＴＳＵＣＨＯ,35.653916,139.7550158,"['開華', '多満自慢']"
（株）はせがわ酒店,35.652907,139.7517991,"['']"
（有）長野屋,35.6612745,139.7221652,"['開華']"
（株）福島屋　六本木店,35.6656056,139.7394165,"['多満自慢']"
酒の一祥 - （株）善波,35.6576441,139.7414323,"['甲子', '多満自慢']"
さかや栗原　麻布店 - さかや栗原,35.6557358,139.7298137,"['仙禽']"
（株）四方,35.6741149,139.7375518,"['多満自慢']"
（株）大西屋,35.650318,139.6856569,"['開華']"
（有）山木屋,35.6333184,139.6986959,"['開華', '多満自慢']"
（株）三浦屋　コピス吉祥寺店,35.7049541,139.5795709,"['多満自慢']"
（有）マサキ屋商店,35.6962376,139.5698064,"['多満自慢']"
（有）柏屋,35.6716334,139.4886723,"['多満自慢']"
加島屋 - （有）加島屋商店,35.6700348,139.4732061,"['多満自慢']"
（株）三浦屋　武蔵小金井店,35.7007274,139.5058103,"['多満自慢']"
（株）佐藤商店,35.6988806,139.5244658,"['多満自慢']"
（株）三浦屋 国立店,35.7000424,139.4467408,"['多満自慢']"
（有）つぶらや,35.6974609,139.4313863,"['大山']"
（株）髙柳商店,35.681151,139.4373721,"['多満自慢', '大雪渓']"
（有）丸石酒販,35.7356561,139.5077486,"['多満自慢']"
水新酒店,35.7475392,139.4694428,"['多満自慢']"
（株）さかいや,35.749582,139.2278297,"['多満自慢', '大雪渓']"
酒のひろせ - （有）リカーズひろせ,35.6552901,139.3139456,"['多満自慢']"
（株）オーソリティ　小田急町田店,35.5439867,139.4451038,"['甲子']"
さかや栗原 町田店 - （株）栗原,35.5370101,139.4702363,"['仙禽']"
（有）長塚商店,35.712333,139.3611952,"['多満自慢', '大雪渓']"
リカーベース福生 - （有）瀬古本店,35.7440529,139.3282495,"['多満自慢']"
（有）宏川屋酒店,35.7933739,139.2651348,"['多満自慢']"
蓬莱屋支店,35.7836302,139.233295,"['多満自慢']"
籠屋 - （有）秋元商店,35.6230161,139.5871661,"['甲子']"
（株）三浦屋 東伏見店,35.7295077,139.5656614,"['多満自慢']"
（株）福島屋　ファンタス羽村店,35.7617411,139.3193846,"['多満自慢']"
（有）小山商店,35.6448888,139.4511936,"['多満自慢']"
（株）いまでや,35.5783143,140.1666373,"['仙禽']"
（有）高石酒店,35.5760618,140.1322101,"['甲子']"
リカーショップ　ウダ - （株）ソーヨー,35.624122,140.0658073,"['開華']"
ＳＯＬ ｂｙ Ｋ - （株）北澤,35.6437986,140.0447399,"['開華']"
させ酒店 - （有）佐瀬酒店,35.6345992,140.110573,"['甲子']"
田中屋酒店,35.8345805,140.1490059,"['甲子']"
(有)酒乃なべだな - （有）なべだなフード,35.8398683,140.1437321,"['甲子']"
（有）はたや商店,35.7970449,139.9705526,"['甲子']"
（株）日暮商店,35.7832025,139.897045,"['開華']"
酒の及川 - （株）ティーエルエス,35.7188174,139.9202411,"['甲子']"
（株）島田屋　業務スーパー　行徳店,35.681482,139.9257977,"['開華', '甲子']"
（株）石渡商店,35.7281055,139.9204673,"['甲子']"
（有）成桝商店,35.7459699,139.9104784,"['甲子']"
（有）小室商店,35.7150173,139.9429779,"['甲子']"
（株）いずみや,35.7670826,140.0086625,"['仙禽']"
升本酒店前原店,35.6984488,140.0285974,"['甲子']"
（株）やつや,35.7006188,140.0285312,"['甲子']"
（有）小西屋,35.752095,140.0844555,"['甲子']"
美好屋酒店 - （株）リカーズ美好屋,35.7007409,140.0892577,"['甲子']"
生鮮館シマダヤ光ケ丘店 - （株）島田屋,35.8275518,139.9571126,"['開華']"
（有）なにわや,35.669569,140.1649557,"['甲子']"
（有）さつきや,35.710794,140.1557655,"['甲子']"
（株）青野商店,35.7831165,140.320842,"['甲子']"
（有）杉井酒店,35.6590774,140.3196366,"['甲子']"
斉藤酒店,35.424056,140.3283573,"['甲子']"
（有）杉井,35.4291051,140.3038436,"['甲子']"
酒楽喜 - （有）ラッキー,35.2528638,140.3961534,"['甲子']"
（有）リカーショップ京町セソール,35.5119814,139.6970788,"['盛升']"
酒蔵楽　かさい,35.5778982,139.6334866,"['開華']"
地酒本舗　小島屋 - （株）小島屋酒店,35.6225544,139.5670271,"['甲子', '多満自慢', '盛升']"
武田商店,35.6212205,139.5487948,"['盛升']"
（株）髙島屋　横浜店,35.4653132,139.6208271,"['仙禽']"
（株）横溝,35.5422712,139.6142991,"['盛升']"
（株）坂口屋,35.5234573,139.5213775,"['天覧山']"
（有）福島屋酒店,35.5191387,139.6712584,"['甲子']"
（株）横濱屋,35.4280827,139.607338,"['盛升']"
（有）上原商店,35.377647,139.5625974,"['越の誉']"
（有）青木屋,35.331522,139.6207864,"['盛升']"
(有)酒室カサイ - （有）酒室商店,35.2254423,139.6901929,"['盛升']"
（有）菅野酒店,35.4605997,139.5053705,"['盛升']"
（有）長谷川越後屋酒店,35.505266,139.4487949,"['盛升']"
（有）大黒屋横田商店,35.4320887,139.5499493,"['甲子', '大雪渓', '盛升']"
（株）高崎屋本店,35.3167775,139.5493742,"['盛升']"
（有）リカーハウス　トミー,35.3607474,139.4461437,"['甲子']"
（有）田嶋商店,35.5959033,139.3210203,"['盛升']"
柳島屋　青木商店,35.3199814,139.3827303,"['天寿', '仙禽', '甲子']"
ＢＯＮ　蔵 - （株）ウチヤマ酒店,35.3113826,139.2455194,"['甲子']"
（株）宮酒,35.3317331,139.2353574,"['若竹', '盛升']"
（株）酒千庵　水上,36.5988652,136.6781476,"['萬歳楽']"
酒のみの川 - （株）みの川,36.5586985,136.6837948,"['萬歳楽']"
（株）良知経営　パスポート御経塚店,36.5470397,136.5936328,"['萬歳楽']"
（株）寿屋　金沢本部,36.5295656,136.6019958,"['萬歳楽']"
（株）酒のカワサキグループ　　ショック店,36.3152883,136.3590057,"['萬歳楽']"
ＣＡＶＥＳ　ＤＥ　ＬＡますもと - （株）升々,37.0053372,136.7778385,"['萬歳楽']"
（有）富田酒店,37.0475166,136.9658391,"['萬歳楽']"
リカーボス福光店 - （株）モリフジ,36.5554144,136.8747923,"['萬歳楽']"
リカーステーション　オオノヤ - （株）大野屋酒店,35.4008307,136.7268331,"['長良川']"
（資）藤井商店,35.4247081,136.7502279,"['長良川']"
ルナ・テーブル　島本屋 - （有）島本屋,35.4838475,136.5813596,"['長良川']"
（株）丸三　三河屋,35.3403781,137.1165934,"['蓬莱泉']"
（株）各務　油屋,35.414103,136.8882399,"['長良川']"
（株）ハトヤ商会,36.6473804,138.216654,"['大雪渓']"
（有）野本商店,36.5620166,138.2024047,"['大雪渓']"
山屋酒店,36.2364678,137.9276815,"['信濃錦', '大雪渓']"
早川酒店,36.0629038,138.0630875,"['信濃錦']"
エスポア　ももせ - （有）百瀬酒店,36.0562221,138.0487237,"['信濃錦']"
三河屋酒店,35.5187828,137.8291709,"['信濃錦']"
（株）松屋　後藤酒店,35.513843,137.8184051,"['蓬莱泉']"
（有）ショパーズ　シオザワ,35.5164027,137.7959987,"['信濃錦']"
（有）井田屋酒店,35.8379582,137.9809634,"['信濃錦']"
（株）みやざわ,36.2960843,137.9050695,"['大雪渓']"
酒一番　どんぺり,36.3443742,137.8593078,"['信濃錦', '大雪渓']"
（株）藤森,36.705357,137.8666818,"['大雪渓']"
（有）下條屋,34.7797845,137.4182756,"['蓬莱泉']"
（株）サンヨネ　東店,34.7605574,137.4143311,"['蓬莱泉']"
富岡屋本店,34.7693231,137.3822831,"['蓬莱泉']"
（株）三河屋,34.7644572,137.3841767,"['若竹', '蓬莱泉']"
（株）サンヨネ　魚町本店,34.7658301,137.3888419,"['蓬莱泉']"
酒のリカプラ新城店 - （株）Ａ－ＵＮ（だわり屋）,34.9024844,137.4879195,"['蓬莱泉']"
マルシメ　平野酒店,34.6678116,137.2717152,"['若竹', '蓬莱泉']"
寿酒販（株）,34.7609709,137.3612074,"['若竹', '蓬莱泉']"
伊勢屋酒店,34.7585612,137.381592,"['若竹', '蓬莱泉']"
安形商店,34.7513474,137.3819771,"['蓬莱泉']"
（株）サンヨネ　高師店,34.7232624,137.3869982,"['蓬莱泉']"
（有）吟酒館たからや,34.8129883,137.3695463,"['蓬莱泉']"
（株）サンヨネ　豊川店,34.8179464,137.3847314,"['蓬莱泉']"
（株）サンヨネ　蒲郡店,34.8241863,137.2326995,"['蓬莱泉']"
やっこ酒店,34.8624141,137.0103772,"['若竹', '蓬莱泉']"
浪漫酒創庫あつみ（有）,34.9456904,137.1631931,"['蓬莱泉', '若戎']"
（株）すぎた,34.9785544,137.159959,"['蓬莱泉']"
（株）中島屋,34.903512,137.2042522,"['蓬莱泉']"
（株）近藤環商店,35.0019779,136.9929461,"['蓬莱泉']"
（株）おかだや,35.1704092,136.8876322,"['長良川', '蓬莱泉']"
（株）酒泉洞堀一,35.1918249,136.8734216,"['仙禽', '若竹', '蓬莱泉']"
（有）美濃庄,35.157255,136.8767483,"['蓬莱泉']"
（株）知多繁,35.1434884,136.9305685,"['蓬莱泉', '若戎']"
（株）三祐,35.1516035,136.9427949,"['蓬莱泉']"
（有）成田屋酒店,35.0181655,137.1333493,"['蓬莱泉']"
（株）米利,34.8518666,136.91961,"['蓬莱泉']"
リカーショップ　グランツ - （有）グランツ,35.00853,136.9665447,"['蓬莱泉', '若戎']"
（株）酒のうかい,35.2618523,136.9793834,"['蓬莱泉']"
（株）オカヤマ,35.2850323,137.0357072,"['蓬莱泉']"
リカーショップ　いとり,35.2005299,136.7337779,"['若戎']"
（株）松本酒店,35.1567274,138.8573075,"['若竹']"
（株）静鉄ストア　大岡店,35.1147659,138.8776172,"['若竹']"
（有）丸茂芹澤酒店,35.0926471,138.8608739,"['仙禽', '若竹', '開運']"
（株）松井酒店,35.0297371,138.9322644,"['若竹', '開運']"
日野屋酒店　三島市 - （有）酒忠,35.1141933,138.9316258,"['若竹']"
（有）輿水酒店,35.1184769,138.9102844,"['若竹', '開運']"
かのや本店 - 石垣醤油（株）,35.1160396,138.9030871,"['若竹']"
しずてつストア - （株）静鉄ストア　長泉店,35.1361414,138.9075704,"['若竹']"
（株）しまだ,35.2984309,138.9306307,"['若竹', '開運']"
近江屋 - （株）近江屋商店,35.0959014,139.0718266,"['若竹', '開運']"
エスポア　みまつや - （有）みまつや,35.1652353,138.6493301,"['若竹', '開運']"
（株）イケタニ,35.1576827,138.6437018,"['若竹', '開運']"
酒のやまき,35.2584768,138.6218342,"['若竹', '開運']"
ブンゴヤ,35.223215,138.6157229,"['若竹', '開運']"
山田屋 - 山田屋酒店,35.2701196,138.6210926,"['若竹', '開運']"
（有）丸屋酒店,35.078232,138.9378182,"['天覧山', '若竹', '開運']"
村上酒店,35.0007528,138.4153196,"['若竹', '開運']"
（株）もちづき岳美店,35.007833,138.3867683,"['若竹', '開運']"
しずてつストア新静岡セノバ店 - （株）静鉄ストア　新静岡セノバ店,34.975677,138.3874351,"['若竹']"
（株）マツキヤ,34.9449874,138.3557952,"['若竹', '開運']"
スーパーカネハチ 榛原店 - （株）カネハチ,34.7474927,138.2293153,"['若竹', '開運']"
（株）スーパーラック　相良店,34.6867081,138.1906189,"['若竹', '開運']"
こめや - 原口酒店,34.6313545,138.1955386,"['若竹', '開運']"
（株）YSP 小林酒店,35.0066841,138.2796992,"['若竹', '開運']"
やまだ酒店,35.1170125,138.5972415,"['若竹', '開運']"
にしきや - （株）ハギニシキ,34.9493159,138.3972082,"['若竹', '開運']"
田島酒店,35.0434964,138.4503765,"['若竹', '開運']"
リカーランド　マツナガ - （有）松永酒店,35.0336357,138.467468,"['若竹', '開運']"
ワインショップ　モチヅキ,35.0338497,138.4908852,"['若竹', '開運']"
（株）ぬまた旭町酒店,35.0179227,138.4891973,"['若竹', '開運', '司牡丹']"
酒のｕマート - （株）ユーマート,35.0030077,138.4691811,"['若竹', '開運']"
エスポア　イケヤ - （有）イケヤ,35.0029031,138.4820007,"['若竹', '開運']"
（有）さくらい,34.8365404,138.3225757,"['若竹', '開運']"
藤八酒店,34.8665228,138.3034048,"['若竹', '開運']"
西郷酒店,34.8576203,138.2681546,"['若竹', '開運']"
ワイン＆リカーズＳＯＮＥ,34.8518493,138.2537354,"['若竹', '開運']"
（有）原田酒店,34.8327094,138.182473,"['若竹', '開運']"
（株）カネハチ 初倉店,34.8075622,138.2188363,"['若竹', '開運']"
駿河屋 - （株）駿河屋商店,34.7105161,137.74563,"['若竹', '開運']"
金松酒店,34.6947613,137.5595634,"['若竹', '開運']"
丸栄酒店,34.7231131,137.4904991,"['若竹', '開運']"
（有）大津屋,34.7161366,137.5463516,"['若竹', '開運']"
（有）大村屋酒店,34.8091842,137.6558349,"['若竹', '開運', '司牡丹', '盛升']"
加用酒店,34.7667663,137.7811953,"['若竹']"
酒＆ＦＯＯＤ　かとう,34.7276727,137.6682628,"['若竹', '開運']"
（株）入野酒販,34.7039417,137.694111,"['若竹', '開運']"
くらた酒店,34.7619229,137.709925,"['若竹', '開運']"
（株）野末商店,34.7953161,137.7868232,"['若竹']"
金原酒店,34.7208714,137.7788726,"['若竹', '開運']"
山下酒店,34.7702618,138.0134324,"['若竹', '開運']"
サンゼン - （株）三善,34.7767245,138.0273741,"['若竹', '開運']"
（有）酒ハウス　ヤマヤ,34.7485335,137.9266247,"['若竹', '開運']"
なだや清水店,34.7354962,137.9307031,"['若竹', '開運']"
松尾酒店,34.838243,137.93115,"['若竹', '開運', '萬代']"
（有）酒のすぎむら,34.6702182,138.0463893,"['若竹', '開運']"
（株）スーパーラック 浜岡店,34.6229907,138.1649965,"['若竹', '開運']"
（有）竹田酒販,34.6478528,138.1337343,"['若竹', '開運']"
（株）スーパーラック　菊川店,34.749261,138.0800218,"['若竹', '開運']"
（有）かぎ八　津田商店,35.5007423,135.7466321,"['酒吞童子']"
（株）良知経営　パスポート四ッ居店,36.0624674,136.2456127,"['萬歳楽']"
二ツ屋酒店 - （有）二ツ屋,35.2038058,135.9222064,"['旭日']"
キムラ酒店,34.9909,135.9118731,"['旭日']"
リカーショップ　ナカヤマ,35.102329,136.0146145,"['旭日']"
FANG - （株）エスウィン,35.2443683,136.2498192,"['旭日']"
（有）小菅酒店,35.2494083,136.242782,"['旭日']"
鷲田酒店,35.0823875,135.9946129,"['旭日']"
タカツ酒店,35.0266931,135.9575171,"['旭日']"
（有）中野酒店,35.0195583,135.9614323,"['天寿', '旭日']"
十四代　金澤 - （株）酒のかなざわ,35.0012383,135.9638146,"['旭日', '月の桂']"
黒川酒店,34.9947601,135.9501704,"['旭日']"
地酒の店　酒藤,35.3825303,136.2932885,"['旭日']"
こいずみ,35.1077136,136.2013447,"['旭日']"
（有）わきざか酒店,35.4745861,136.2380514,"['旭日']"
（株）リカーズ・サンク,35.0146972,136.2237561,"['旭日']"
遊食館　蔵屋,35.0156383,136.642778,"['若戎']"
マスダ　チャム店 - （株）マスダ,34.7341112,136.5107971,"['若戎']"
阪本酒店,34.4865885,136.7116114,"['若戎']"
（名）青木商店,34.4939486,136.6986074,"['若戎']"
酒屋おおいわ - （有）大岩商店,34.4845108,136.8434614,"['若戎']"
リカー＆ギフトギャラリー　田中屋 - （株）田中屋,34.6200314,136.0885474,"['若戎']"
（株）ナガタヤ,34.7705629,136.1451859,"['若戎']"
コンビマート　宏明 - （有）宏明,34.0759583,136.1983368,"['若戎']"
（株）浅野日本酒店SANNOMIYA,34.6915355,135.1900104,"['嘉美心']"
（株）芳地商店,34.688237,135.18125,"['富久錦']"
（有）すずらん吉田商店,34.7239577,135.1472249,"['富久錦']"
（株）ＯＺＡＷＡ　パルドン　西神戸店,34.6762715,135.0138501,"['富久錦', '司牡丹']"
（有）オグラ屋,34.6698034,134.9805243,"['富久錦']"
酒の美味小家　てらむら - （株）裕多加,34.6773262,135.1631172,"['富久錦', '嘉美心']"
（有）諏訪山酒販,34.6674459,135.1609808,"['富久錦']"
たもん酒販（株）,34.65964,135.0565546,"['富久錦']"
小谷酒販（株）,34.3413886,134.8932157,"['五橋']"
（株）高田屋,34.52073,134.8786867,"['富久錦', '嘉美心']"
ＫＯＡＭＩＮＡＫＡ - こあみなか本店,34.7183686,135.2413641,"['富久錦']"
エスポア　くらはし - （有）倉橋商店,34.7427854,135.3104614,"['富久錦']"
（有）いこま　浅井和子,34.7395478,135.4017509,"['富久錦']"
お酒のＷａｋｉ - （株）ワキ,34.7479662,135.3723136,"['超久']"
（有）山田商店,34.8597439,135.4169283,"['富久錦']"
（株）加納吉之助商店,35.1585006,135.0460996,"['嘉美心']"
坂本屋酒店 - （株）坂本屋,35.6259644,134.8086744,"['富久錦']"
酒のやまの,34.8385015,134.6871651,"['富久錦']"
（株）平井商店,34.8332817,134.6801506,"['富久錦']"
（株）アクエレナ,34.844401,134.66898,"['司牡丹']"
（株）丸武,34.8064208,134.632585,"['富久錦']"
酒蔵　やまもと,34.7873784,134.5921462,"['富久錦']"
本と酒 鍛冶六 - D.graph（株）,34.7819158,134.589231,"['富久錦']"
エスポアこにし,34.8116681,134.6495487,"['富久錦']"
浅井商店,34.7755586,135.0268186,"['富久錦']"
味の蔵　井乃屋,34.8926725,135.0467915,"['富久錦']"
西海醤油（株）,34.7057636,134.923894,"['富久錦']"
（株）松竹酒舗,34.7619685,134.8554099,"['富久錦']"
四季創庫モリ,34.9241483,134.8501509,"['富久錦']"
（株）ＯＺＡＷＡ　パルドン西脇店,34.9853684,134.9809888,"['富久錦', '司牡丹']"
堀口酒販（株）,34.9812038,135.7593363,"['月の桂']"
（有）津之喜商店,35.0050125,135.7649113,"['月の桂']"
（株）浅野日本酒店　ＫＹＯＴＯ,35.0058572,135.7652178,"['月の桂', '富久錦', '春鹿']"
アルファ - （有）うめだ,35.0038128,135.7441539,"['旭日', '月の桂']"
（株）サカタニ,34.9890458,135.7690586,"['月の桂', '酒吞童子', '春鹿']"
にしむら酒店,35.0295171,135.7909227,"['月の桂']"
マルマン商店,34.8569059,135.780556,"['月の桂']"
キックス槙島店,34.9100613,135.7796622,"['月の桂', '酒吞童子']"
（株）津乃嘉商店,34.9532533,135.771313,"['若戎', '月の桂', '酒吞童子', '富久錦', '春鹿', '超久']"
（有）菊屋,34.856086,135.6966396,"['酒吞童子']"
（株）ヤスイ,34.9888415,135.7211793,"['若戎', '月の桂']"
（株）サンフェステ本店,35.0093486,135.580475,"['旭日', '月の桂']"
（株）サンフェステ舞鶴店,35.4422766,135.355828,"['酒吞童子', '超久']"
リカーショップ　サカイ,35.4743219,135.3958936,"['酒吞童子']"
ギフト館　藤善　東舞鶴店 - （株）藤善　　東舞鶴店,35.4684618,135.3977055,"['酒吞童子']"
（有）山長　梅田店,34.6987076,135.4995633,"['若戎']"
（株）永田商店,34.693309,135.5141674,"['酒吞童子', '春鹿', '超久']"
（株）浅野日本酒店　ＵＭＥＤＡ,34.7021634,135.5052559,"['月の桂', '富久錦', '春鹿']"
酒蔵　なかやま,34.7137118,135.5067367,"['富久錦']"
酒工房 梅本,34.7270765,135.4939138,"['若戎', '春鹿', '超久']"
（株）ムライ,34.7149615,135.5313849,"['春鹿']"
ワールドリカー桜の宮 - 桜宮酒類食品（株）,34.7031737,135.5239968,"['春鹿', '超久']"
（有）アムト,34.7329174,135.5532877,"['春鹿']"
なかの酒店,34.6922736,135.5801062,"['春鹿']"
（株）白木商店,34.6637251,135.5070367,"['富久錦', '超久']"
コスモリカー寺田町店 - マルタカ（株）,34.649149,135.5248482,"['春鹿', '嘉美心']"
（有）さくらだ酒店,34.6584627,135.5503636,"['春鹿', '超久']"
篠原酒店,34.6019475,135.5791337,"['若戎', '春鹿']"
（株）大川,34.6664987,135.4764115,"['春鹿']"
折口酒店 - （株）折口,34.6518457,135.5047462,"['若戎', '春鹿', '超久']"
きくや酒販（株）,34.6603388,135.5046124,"['超久']"
高木酒店,34.7579234,135.5093879,"['春鹿']"
（株）酒専やまもと,34.8337613,135.5333064,"['春鹿']"
（株）にしじま,34.7960737,135.5744787,"['富久錦']"
酒蔵雪江堂　大阪 - （株）雪江堂　大阪,34.8527188,135.5799025,"['春鹿', '嘉美心']"
Ｂｅｅｒｓ　コニシ - （株）小西,34.7328631,135.5592791,"['春鹿', '超久']"
酒好きのおやじのいる　こめよし - （有）米芳商店,34.7636375,135.6180813,"['春鹿']"
太田屋,34.7856831,135.6271822,"['蓬莱泉', '月の桂', '春鹿', '司牡丹']"
（株）奥広屋,34.7510497,135.613395,"['酒吞童子', '春鹿', '五橋']"
（株）もりけん酒米店,34.796738,135.6417255,"['春鹿']"
（株）大東サッシ工業所　夢市場事業部,34.7961059,135.6893794,"['春鹿']"
酒のあかぎ - 赤木酒店,34.6657329,135.5906749,"['春鹿']"
（有）大西商店,34.6627622,135.5623495,"['春鹿']"
大木酒店,34.6944854,135.6048439,"['春鹿']"
（株）酒寅,34.6074592,135.632244,"['春鹿']"
谷酒店,34.5713102,135.5953882,"['春鹿']"
三城酒店,34.5719272,135.4817449,"['富久錦']"
酒の戸松屋　金岡店,34.5624544,135.5175319,"['春鹿', '超久']"
酒の戸松屋　本店,34.5631617,135.5091481,"['春鹿', '超久']"
（株）とめ河,34.4832566,135.3976533,"['若戎', '春鹿', '超久']"
リカーズ　フジタ,34.4594394,135.3659341,"['春鹿']"
酒商あべ - （株）オフィス安部,34.4380576,135.3713892,"['酒吞童子', '春鹿', '超久']"
（株）深井中野酒本店,34.5354443,135.487681,"['蓬莱泉', '富久錦', '春鹿']"
樫原屋酒店,34.2399855,135.1777002,"['超久']"
（株）岩内商店,34.2234146,135.1668498,"['春鹿', '超久']"
奥野酒店,34.1551571,135.20825,"['超久']"
酒ショップなかや - （有）なかや,34.049985,135.1905591,"['超久']"
（株）曽根,33.8353714,135.1776911,"['超久']"
酒のダイナミック - （有）ダイナミック,33.7379523,135.3853759,"['超久']"
岡本酒店,33.7312473,135.3824872,"['超久']"
とれとれ酒店 - （株）南紀白浜酒店,33.6782195,135.3778817,"['超久']"
（株）八尾源,34.6401559,135.802361,"['春鹿']"
日比商店,34.1493953,132.2143759,"['五橋']"
しらき酒店,34.1249053,132.1996176,"['五橋']"
（株）江木食品,34.1627613,132.0926458,"['五橋']"
（株）まつもと,33.9672572,132.1091559,"['五橋']"
原田酒店（株）,33.9734947,131.9210618,"['五橋']"
酒やの山善 - （有）山善,33.9424827,131.9665472,"['五橋']"
竹本本店,34.0583133,131.9786579,"['五橋']"
中嶋酒店 - （有）ナカシマ,34.0325982,131.8451157,"['五橋']"
冨永酒造（株）,34.0269674,131.8290246,"['五橋']"
リカーショップくすのき,34.0569552,131.8246759,"['五橋']"
（有）山本屋,34.0735505,131.7714146,"['五橋']"
ビッグ１ - （株）ナカガワ,34.0626532,131.5696763,"['五橋']"
池田屋酒店,34.0550122,131.5531159,"['五橋']"
藤吉酒店,34.0391685,131.5672634,"['五橋']"
有吉酒店,33.9581198,130.9427426,"['五橋']"
（株）梶原酒店,33.9601053,130.9405091,"['五橋']"
（株）酒のバッカス　下関,33.9522193,130.9288453,"['五橋']"
大丸下関店内アールアンドダブリュ - アールアンドダブリュ（株）,33.9489466,130.9235456,"['五橋']"
（有）三宅商店,33.9246157,130.920891,"['五橋']"
ムラタ,34.1876806,131.4768704,"['五橋']"
アサヤ - （株）浅屋商店,34.17825,131.4786424,"['五橋']"
チアーズ フジグラン宇部店 - （株）リカースペース太陽 チアーズ,33.930585,131.256172,"['五橋']"
（有）篠澤酒舗,33.961954,131.2323474,"['五橋']"
リカースペース太陽 萩店 - （株）リカースペース太陽,34.4105423,131.4074565,"['五橋']"
（株）リカースペース太陽　厚南２号店,33.9838928,131.2091491,"['五橋']"
（有）酒屋の宇山,35.4482464,133.0649877,"['豊の秋', '七冠馬']"
（株）錦織,35.4558862,133.0604841,"['豊の秋', '七冠馬']"
地酒家つねまつ,35.4716193,133.0543396,"['豊の秋', '七冠馬']"
（有）槙戸商店,35.4847138,133.0595737,"['豊の秋', '七冠馬']"
（有）ナガサワ,35.3542734,132.7582846,"['豊の秋']"
酒・タバコ専門店　西屋 - （株）西屋,35.3825056,132.7385328,"['豊の秋', '七冠馬']"
酒の山尾 - （有）渡辺酒店,35.014527,132.2258526,"['七冠馬']"
安部屋酒店,35.1971876,133.0040211,"['豊の秋', '七冠馬', '賀茂泉']"
（資）丸新醤油醸造元,34.6702574,131.7596964,"['五橋']"
（株）谷本酒店,35.4955853,134.2295706,"['仙禽']"
（有）いなしま酒店,35.4298114,133.8156537,"['']"
（有）深田酒店,35.4241437,133.3350297,"['豊の秋']"
（株）米子しんまち天満屋,35.4405835,133.3410831,"['豊の秋']"
酒のたなか - （有）田中知義商店,35.4869601,133.7845662,"['嘉美心']"
たかつか酒店,35.4272862,133.3849625,"['豊の秋']"
（株）酒商山田 酒のマエダ,34.4871079,133.364386,"['嘉美心']"
（株）三和酒店,34.4842465,133.3985949,"['嘉美心']"
（有）酒のたかはし,34.4070526,133.1911924,"['嘉美心']"
（株）大和屋酒舗,34.3928644,132.4658787,"['賀茂泉', '五橋']"
住田（株）,34.3889038,132.4691971,"['賀茂泉']"
ヤマヤス酒販,34.4538189,132.4724962,"['賀茂泉']"
福島酒店,34.4704907,132.4510677,"['賀茂泉']"
のづ酒店,34.3653843,132.3717674,"['賀茂泉']"
（株）デイ・リンク　庚午店,34.3858704,132.4174296,"['賀茂泉', '五橋']"
アクト中食（株）,34.3654602,132.3948604,"['嘉美心', '賀茂泉']"
（有）カジカワ,34.3725377,132.3758247,"['賀茂泉']"
（有）岡村酒店,34.3851157,132.4090869,"['賀茂泉']"
（有）リカーショップ　イシカワ,34.3865424,132.4102468,"['賀茂泉', '五橋']"
（株）呉　山城屋,34.2431432,132.5651644,"['賀茂泉']"
Ｌｅｔ’ｓ　ｅｎｊｏｙ酒生活・酒文化　タナカ - リカー＆フーズ　タナカ,34.3668152,132.3331406,"['賀茂泉']"
住田屋　西条店 - （有）住田　西条店,34.4177528,132.7506853,"['賀茂泉']"
住田屋　八本松店 - （有）住田　八本松店,34.4466632,132.7069209,"['賀茂泉']"
酒游館 - （有）やましち,34.240339,132.2229703,"['賀茂泉', '五橋']"
（有）小橋酒店,34.6693262,133.9223461,"['嘉美心']"
（有）樋口商店,34.6679464,133.916266,"['嘉美心']"
（株）森脇英一商店,34.6731497,133.9286893,"['嘉美心']"
バッカスノースランド店 - （株）バッカス,35.0806287,134.0047395,"['嘉美心']"
リカーショップ　きど,34.6011685,133.7704943,"['嘉美心']"
ワインショップ　しんじ,34.6036073,133.7713043,"['嘉美心']"
酒工房　あおえ,34.5973467,133.7438957,"['嘉美心']"
リカーランドカモガタ,34.5272455,133.5902073,"['嘉美心']"
むかい酒店 - （株）エル・エス・エム,33.8433837,132.7715914,"['鳴門鯛', '梅錦', '司牡丹']"
向井酒店,33.8359549,132.7719085,"['梅錦']"
宮岡酒店,33.8244054,132.7513631,"['梅錦', '司牡丹']"
モアイ - （有）酒吉,33.8472727,132.7704695,"['梅錦', '司牡丹']"
津田酒店 - 津田食品（有）,33.8519211,132.7604344,"['梅錦', '司牡丹']"
（有）ヤマケイ,33.8602378,132.7769688,"['梅錦']"
わいんと地酒の店　かたやま,33.8154635,132.7775281,"['梅錦', '司牡丹']"
（株）フジ　フジグラン松山,33.8449343,132.7524322,"['梅錦']"
藤田酒店,33.8042688,132.886511,"['梅錦']"
（株）フジ　フジグラン重信店,33.7958352,132.8325215,"['梅錦']"
（株）フジ　フジグラン　エミフル松前店,33.79135,132.7166429,"['梅錦']"
横田酒店,33.5519351,132.65544,"['梅錦', '司牡丹']"
（株）松本酒店　酒のアイコウ,33.9653665,133.2800535,"['梅錦']"
（株）丸屋近藤酒店,33.9657911,133.2906201,"['梅錦']"
リカーショップ　酒タカオカ - （株）高岡酒店,33.9699012,133.2954665,"['梅錦']"
リカーショップおだに - （有）小谷酒店,33.5296444,132.5730848,"['司牡丹']"
リカー＆クオリティ　サミット - （有）末光商店,33.3583932,132.5180355,"['梅錦', '司牡丹']"
土師酒店,33.2161728,132.5679542,"['梅錦', '司牡丹']"
（有）赤松酒店,33.2513178,132.6833595,"['梅錦']"
リカー＆フード　タニカク - （有）タニカク,34.0097614,133.5734706,"['梅錦']"
石川友一商店,33.9927961,133.6011199,"['梅錦', '司牡丹']"
酒のタケモト - （資）竹本商店,33.9800295,133.5455044,"['梅錦']"
リカーハウス　むらかみ - （株）むらかみ,33.9324865,133.0869103,"['梅錦', '司牡丹']"
白石酒販（有）,34.0462368,133.0208181,"['梅錦']"
澄酒,34.346018,134.0531061,"['鳴門鯛']"
ふくしま屋 - （有）福島商店,34.344556,134.0686007,"['司牡丹']"
（株）久本酒店,34.3089955,134.0378259,"['司牡丹']"
（株）松田酒販,34.2953721,133.7958343,"['鳴門鯛', '司牡丹']"
（株）さこぐち酒店,34.2100947,133.7764925,"['梅錦']"
（有）高木屋酒店,34.1811943,133.8439465,"['梅錦', '司牡丹']"
（有）おおにし酒みせ,34.1299061,133.6760576,"['司牡丹']"
近藤印　高知酒店,33.5687635,133.5575673,"['司牡丹']"
（有）近藤酒店,33.5614052,133.5529388,"['司牡丹']"
（有）秋山酒類食料品店,33.5600524,133.5444399,"['司牡丹']"
（有）古谷商店,33.5626393,133.5414197,"['司牡丹']"
池沢酒店 - （有）池沢茂猪商店,33.5521642,133.4974432,"['司牡丹']"
清水酒販 - （有）シミズ,33.5167989,133.5731652,"['司牡丹']"
サンシャイン弘岡,33.5052285,133.4604652,"['司牡丹']"
用石屋 - 横川酒店,33.4963838,133.4220374,"['司牡丹']"
藤戸酒店,33.5499389,133.4204646,"['司牡丹']"
（有）響屋,33.5252054,133.7980201,"['司牡丹']"
野町酒店,33.2859804,134.1501735,"['司牡丹']"
内田酒店,33.5643845,133.5903008,"['司牡丹']"
酒の溝渕 - （株）溝渕商店,33.575688,133.6414203,"['司牡丹']"
サンシャイン　ディスカ,33.440955,133.2113509,"['司牡丹']"
（有）地酒屋,33.1992933,132.9736088,"['司牡丹']"
リカーショップ　しまむら - 嶋村酒店,32.991813,132.9398733,"['司牡丹']"
なんかいリカー,32.9327417,132.7182267,"['司牡丹']"
まきのさんの道の駅・佐川 - 一般財団法人しあわせづくり佐川,33.5038879,133.3189469,"['司牡丹']"
山八酒店,33.3292241,133.2302273,"['司牡丹']"
（株）鹿の子,34.0646972,134.5496601,"['鳴門鯛']"
酒の大安 - （有）大安,34.0838958,134.2804484,"['鳴門鯛', '梅錦']"
小林酒店,32.7756473,129.9521328,"['萬代']"
さかい酒舎,32.7697134,129.8654253,"['萬代']"
お酒のとくやま,32.7744345,129.8621249,"['萬代']"
酒のさかえ,32.8473694,130.0517596,"['香露']"
鶴川米穀酒店,32.8571047,130.0391711,"['香露']"
土佐屋 - とさや酒店,32.7277388,130.2069072,"['萬代']"
（株）ささや,32.7879807,130.3555453,"['萬代']"
（有）富屋,32.9356164,129.9391133,"['西の関']"
（有）酒の一斗　佐々店,33.2335498,129.645972,"['萬代']"
堤酒店,33.170272,129.7242838,"['西の関']"
（有）むらなか,33.1914931,129.6532782,"['西の関']"
（株）ひかり酒販,32.8532961,130.0700287,"['萬代']"
地酒処　山田酒店 - 合同会社山田酒店,33.2455343,130.2958075,"['香露']"
原岡酒店,33.3673473,130.5207025,"['萬代']"
ラ・フィット　くしだ,33.3107141,130.3730662,"['萬代']"
馬渡商店,33.2098414,130.0447787,"['西の関']"
伊東酒店,33.1148038,130.0014631,"['']"
（有）酒のナガタ,33.4413253,129.9721506,"['']"
（有）酒の一斗　伊万里店,33.2648712,129.8655666,"['萬代']"
良酒屋本店 - グッドリカー（株）,33.2908906,130.2773196,"['']"
薩摩屋 - （株）たけうち,33.8898428,130.9293819,"['萬代']"
（有）山田芳太郎酒店,33.9555476,130.96526,"['西の関']"
シマダ酒店,33.9446211,130.965205,"['萬代']"
（有）酒の阿波屋,33.9513383,130.9771442,"['五橋']"
酒の中村園 魚町店 - 酒の中村園（株）,33.8827758,130.880801,"['萬代']"
（株）井筒屋　小倉本店,33.8845096,130.8783326,"['萬代', '西の関']"
（有）酒のしまぞえ,33.8751153,130.8936364,"['萬代']"
酒のうちお - （有）内尾商会,33.8713228,130.893148,"['萬代']"
河口酒店,33.864075,130.8876823,"['萬代']"
（資）力丸酒店,33.878524,130.8783523,"['西の関']"
いくらや酒店,33.88306,130.8677074,"['萬代']"
酒の筑後屋,33.8918804,130.8603383,"['萬代']"
城戸酒店,33.8929087,130.8492382,"['萬代']"
川口屋酒店,33.8730967,130.8529167,"['萬代', '西の関']"
（有）ひらしま酒店,33.8589361,130.8205888,"['']"
地酒とギフトの店　天野屋 - （株）てのや商店,33.890643,130.6707469,"['萬代']"
（株）銘酒館倉松,33.905427,130.8072611,"['萬代']"
みつばや酒店,33.9031197,130.8118319,"['萬代']"
（株）ＶＩＥＷ　栗本酒店,33.8908325,130.7625611,"['萬代', '西の関']"
（有）友添本店,33.5870055,130.4073318,"['萬代']"
（株）高吉,33.5746898,130.37937,"['']"
牛尾酒店,33.5308684,130.3248952,"['萬代']"
カネヒコ酒店,33.5367911,130.4376262,"['萬代']"
（有）笑中や　宮内商店,33.568682,130.529246,"['萬代']"
（有）ひさや,33.6025491,130.4609557,"['萬代']"
今泉酒類販売（株）,33.6079155,130.459211,"['萬代']"
千鳥屋酒店,33.7473119,130.4822885,"['萬代']"
（有）なかの酒店,33.7004783,130.4743453,"['萬代']"
かごしま屋,33.8523212,130.668522,"['萬代']"
水上酒店,33.8494182,130.6734893,"['萬代']"
（株）石田商店,33.5924713,130.413604,"['萬代']"
（有）吉塚酒店,33.5993854,130.4296464,"['萬代']"
酒のヤマダ屋,33.5980803,130.418329,"['萬代']"
丸允（有）,33.616766,130.4262026,"['萬代']"
（株）まことや,33.6464185,130.4444469,"['萬代']"
（株）高田,33.5841869,130.3623345,"['萬代']"
松尾酒店,33.5777204,130.3729946,"['若竹', '開運', '萬代']"
（有）新栄酒販,33.5349281,130.3837628,"['萬代']"
森江酒店,33.5577178,130.4295469,"['萬代']"
福田酒店,33.5221225,130.4890099,"['萬代']"
リーバイ - アークラプロ（株）,33.4549304,130.5420788,"['萬代']"
酒匠,33.4971347,130.5223219,"['萬代']"
（株）溝口商店,33.5594475,130.321701,"['萬代']"
柴田酒店,33.5815003,130.2736021,"['萬代']"
酒みせ　ちきゅう屋,33.5890937,130.1542757,"['萬代']"
倉重酒店,33.6511367,130.6542765,"['萬代']"
（有）酒の昌屋,33.6465578,130.6746908,"['萬代']"
（株）片島屋,33.6438703,130.6847374,"['西の関']"
門司酒店,33.7372271,130.7061699,"['萬代']"
酒屋あづま,33.7279951,130.9737716,"['西の関']"
大鶴酒店,33.726583,130.9740918,"['萬代']"
（有）古賀美酒店,33.3116334,130.5228107,"['萬代']"
青木酒店,33.3084038,130.5160079,"['萬代']"
平田商販（株）,33.2162025,130.3687575,"['香露']"
深町酒店,33.2094526,130.4992912,"['萬代']"
（株）ＨＩＲＡＫＡＷＡ,33.0313409,130.4411282,"['香露']"
扇屋酒店,33.4257619,130.65485,"['萬代']"
やまえみちのお酒屋さん - （有）山家道酒店,33.4787222,130.5652066,"['萬代']"
後藤商店,33.3575179,130.6685368,"['西の関']"
江上酒店,33.3461217,130.6879349,"['萬代']"
view! - （株）福城屋,32.8000885,130.6958421,"['香露']"
酒の津本屋 - （有）津本屋酒店,32.7766791,130.6725828,"['香露']"
（株）久屋酒販,32.7995579,130.7062317,"['香露']"
（有）堤酒店,32.8055912,130.7109356,"['香露']"
入船 - （株）やまだ商店,32.8878053,130.6854507,"['萬代', '香露']"
ぷちショップ山鹿店 - （有）栗原等商店,33.0015815,130.6864216,"['香露']"
（有）野口商店,32.7807276,130.7902213,"['香露']"
はやし酒店 - （有）林酒店,32.7451692,130.6824238,"['香露']"
飛鳥名酒販売近見店 - （有）熊本飛鳥,32.7612076,130.6978564,"['香露']"
（株）マルエイ　岩崎店　酒販部,32.9317303,130.561675,"['香露']"
酒のセザキ - （株）瀬崎酒店,32.9266051,130.5596327,"['萬代', '香露']"
（株）きもとの蔵,32.4971725,130.5988633,"['']"
銘酒イナムラ - （株）イナムラ,32.5130535,130.622805,"['萬代', '香露']"
モンマート　つかもと - （資）塚本酒店,32.2146663,130.7576242,"['香露']"
（株）ユーマートトクナガ　長洲店,32.9310519,130.4531193,"['香露']"
こが酒販 - （株）古賀酒販,32.6506538,130.6739984,"['香露']"
（株）大平酒店,33.2438191,131.6151807,"['西の関']"
明野酒類（株）,33.2265184,131.6592264,"['西の関']"
（株）シロサキ,33.2498307,131.6250816,"['西の関']"
酒スタジアム　ヨコヤマ　万田店 - （株）横山酒販,33.5845369,131.1872202,"['西の関']"
（株）エトーシン,33.2767105,131.5033103,"['西の関']"
（有）小谷商店,33.2773863,131.5003027,"['西の関']"
（有）フジスエ,32.9339415,131.8352365,"['西の関']"
古川酒店 - （有）プロフィット,32.9594432,131.8777298,"['西の関']"
大塚酒店 - （株）オオツカ,33.318252,130.9344858,"['西の関']"
（有）アリタ商店,33.3750174,131.4952116,"['西の関']"
タマルヤ商店 - （有）タマルヤ,33.2490922,131.8642869,"['西の関']"
（有）髙木酒店,33.0744363,131.8630363,"['西の関']"
（有）下谷商店,33.2649145,131.3561192,"['西の関']"
（有）ナガサト酒店,31.5261667,130.5037508,"['香露']"
（株）吉山中町支店　酒舗かごしま屋,31.5929885,130.5557528,"['香露']"
（有）マルナカ,31.816946,130.3137282,"['香露']"
（有）赤塚屋百貨店,31.7399786,130.7670373,"['香露']"
リカーショップ　美乃屋 - （株）マルシン,31.736033,130.6650884,"['香露']"
こまみず酒店,31.5060022,131.1093401,"['香露']"
（有）酒蔵大隅家,31.5931232,130.99871,"['香露']"
山口本店,32.558741,131.6761252,"['西の関']"
福島酒店（名）,31.5341405,131.3722516,"['西の関']"

